{"meta":{"code":200,"requestId":"619af0953de71405abe65247"},"response":{"venues":[{"id":"5540fc7b498e6d8f9a4cc691","name":"Quebec City Marriott Downtown","location":{"address":"850 Place D'Youville","lat":46.811957318356036,"lng":-71.21437003795927,"labeledLatLngs":[{"label":"display","lat":46.811957318356036,"lng":-71.21437003795927}],"distance":64,"postalCode":"G1R 3P6","cc":"CA","city":"QuÃ©bec","state":"QC","country":"Canada","formattedAddress":["850 Place D'Youville","Quebec City QC G1R 3P6","Canada"]},"categories":[{"id":"4bf58dd8d48988d1fa931735","name":"Hotel","pluralName":"Hotels","shortName":"Hotel","icon":{"prefix":"https:\/\/ss3.4sqi.net\/img\/categories_v2\/travel\/hotel_","suffix":".png"},"primary":true}],"venuePage":{"id":"141963713"},"referralId":"v-1637544085","hasPerk":false},{"id":"4b3b9489f964a520467625e3","name":"Place d'Youville","location":{"address":"970 rue St-Jean","crossStreet":"Place d'Youville","lat":46.81242667014215,"lng":-71.2142465940788,"labeledLatLngs":[{"label":"display","lat":46.81242667014215,"lng":-71.2142465940788}],"distance":104,"postalCode":"G1R 1R5","cc":"CA","city":"QuÃ©bec","state":"QC","country":"Canada","formattedAddress":["970 rue St-Jean (Place d'Youville)","Quebec QC G1R 1R5","Canada"]},"categories":[{"id":"4bf58dd8d48988d164941735","name":"Plaza","pluralName":"Plazas","shortName":"Plaza","icon":{"prefix":"https:\/\/ss3.4sqi.net\/img\/categories_v2\/parks_outdoors\/plaza_","suffix":".png"},"primary":true}],"referralId":"v-1637544085","hasPerk":false},{"id":"4b3e9ef1f964a520e79f25e3","name":"Centre d'information du RTC","location":{"address":"884 rue Saint-Joachim","crossStreet":"Av HonorÃ©-Mercier","lat":46.811529900390454,"lng":-71.21527817726339,"labeledLatLngs":[{"label":"display","lat":46.811529900390454,"lng":-71.21527817726339}],"distance":22,"postalCode":"G1R 5N4","cc":"CA","city":"QuÃ©bec","state":"QC","country":"Canada","formattedAddress":["884 rue Saint-Joachim (Av HonorÃ©-Mercier)","QuÃ©bec QC G1R 5N4","Canada"]},"categories":[{"id":"4f4530164b9074f6e4fb00ff","name":"Tourist Information Center","pluralName":"Tourist Information Centers","shortName":"Tourist Information","icon":{"prefix":"https:\/\/ss3.4sqi.net\/img\/categories_v2\/travel\/touristinformation_","suffix":".png"},"primary":true}],"referralId":"v-1637544085","hasPerk":false},{"id":"4b522207f964a520736a27e3","name":"Guichet Desjardins de la SRC","location":{"address":"Rue St.-Jean","crossStreet":"Coin HonorÃ©-Mercier","lat":46.81188552284994,"lng":-71.21590520866258,"labeledLatLngs":[{"label":"display","lat":46.81188552284994,"lng":-71.21590520866258}],"distance":62,"cc":"CA","city":"QuÃ©bec","state":"QC","country":"Canada","formattedAddress":["Rue St.-Jean (Coin HonorÃ©-Mercier)","Quebec QC","Canada"]},"categories":[{"id":"52f2ab2ebcbc57f1066b8b56","name":"ATM","pluralName":"ATMs","shortName":"ATM","icon":{"prefix":"https:\/\/ss3.4sqi.net\/img\/categories_v2\/shops\/financial_","suffix":".png"},"primary":true}],"venuePage":{"id":"1359969270"},"referralId":"v-1637544085","hasPerk":false},{"id":"4bacee27f964a520d91a3be3","name":"Station d'Youville - RTC","location":{"address":"Avenue HonorÃ©-Mercier","crossStreet":"St-Joachim","lat":46.81157605896876,"lng":-71.21529108290034,"labeledLatLngs":[{"label":"display","lat":46.81157605896876,"lng":-71.21529108290034}],"distance":18,"cc":"CA","city":"QuÃ©bec","state":"QC","country":"Canada","formattedAddress":["Avenue HonorÃ©-Mercier (St-Joachim)","QuÃ©bec QC","Canada"]},"categories":[{"id":"4bf58dd8d48988d12b951735","name":"Bus Line","pluralName":"Bus Lines","shortName":"Bus","icon":{"prefix":"https:\/\/ss3.4sqi.net\/img\/categories_v2\/travel\/busstation_","suffix":".png"},"primary":true}],"referralId":"v-1637544085","hasPerk":false},{"id":"4b5f570af964a520f5b429e3","name":"Hilton","location":{"address":"1100 Rene Levesque East","crossStreet":"at ave. HonorÃ©-Mercier","lat":46.810919,"lng":-71.2153571,"labeledLatLngs":[{"label":"display","lat":46.810919,"lng":-71.2153571}],"distance":88,"postalCode":"G1R 4P3","cc":"CA","city":"QuÃ©bec","state":"QC","country":"Canada","formattedAddress":["1100 Rene Levesque East (at ave. HonorÃ©-Mercier)","QuÃ©bec QC G1R 4P3","Canada"]},"categories":[{"id":"4bf58dd8d48988d1fa931735","name":"Hotel","pluralName":"Hotels","shortName":"Hotel","icon":{"prefix":"https:\/\/ss3.4sqi.net\/img\/categories_v2\/travel\/hotel_","suffix":".png"},"primary":true}],"referralId":"v-1637544085","hasPerk":false},{"id":"4b44f06df964a520520026e3","name":"Nautilus Plus - Place QuÃ©bec","location":{"address":"880, avenue HonorÃ©-Mercier","lat":46.81139085472957,"lng":-71.21543701042344,"labeledLatLngs":[{"label":"display","lat":46.81139085472957,"lng":-71.21543701042344}],"distance":41,"postalCode":"G1R 4X5","cc":"CA","city":"QuÃ©bec","state":"QC","country":"Canada","formattedAddress":["880, avenue HonorÃ©-Mercier","QuÃ©bec QC G1R 4X5","Canada"]},"categories":[{"id":"4bf58dd8d48988d176941735","name":"Gym","pluralName":"Gyms","shortName":"Gym","icon":{"prefix":"https:\/\/ss3.4sqi.net\/img\/categories_v2\/building\/gym_","suffix":".png"},"primary":true}],"referralId":"v-1637544085","hasPerk":false},{"id":"4bcdf950fb84c9b674f3223e","name":"Palace Royal","location":{"address":"775, av. HonorÃ©-Mercier","lat":46.81225613849557,"lng":-71.21560975155099,"labeledLatLngs":[{"label":"display","lat":46.81225613849557,"lng":-71.21560975155099}],"distance":72,"cc":"CA","city":"QuÃ©bec","state":"QC","country":"Canada","formattedAddress":["775, av. HonorÃ©-Mercier","QuÃ©bec QC","Canada"]},"categories":[{"id":"4bf58dd8d48988d1fa931735","name":"Hotel","pluralName":"Hotels","shortName":"Hotel","icon":{"prefix":"https:\/\/ss3.4sqi.net\/img\/categories_v2\/travel\/hotel_","suffix":".png"},"primary":true}],"referralId":"v-1637544085","hasPerk":false},{"id":"4b6a01b8f964a5204cc12be3","name":"Subway","location":{"address":"800 Place D Youville, No 16 Ground Floor","lat":46.812313145671034,"lng":-71.21483337738186,"labeledLatLngs":[{"label":"display","lat":46.812313145671034,"lng":-71.21483337738186}],"distance":71,"postalCode":"G1R 3P4","cc":"CA","city":"QuÃ©bec","state":"QC","country":"Canada","formattedAddress":["800 Place D Youville, No 16 Ground Floor","QuÃ©bec QC G1R 3P4","Canada"]},"categories":[{"id":"4bf58dd8d48988d1c5941735","name":"Sandwich Place","pluralName":"Sandwich Places","shortName":"Sandwiches","icon":{"prefix":"https:\/\/ss3.4sqi.net\/img\/categories_v2\/food\/deli_","suffix":".png"},"primary":true}],"referralId":"v-1637544085","hasPerk":false},{"id":"508ae5c0e4b086e5994d2463","name":"Dans Le Tiguan Rouge Fm","location":{"lat":46.811836,"lng":-71.215383,"labeledLatLngs":[{"label":"display","lat":46.811836,"lng":-71.215383}],"distance":24,"cc":"CA","country":"Canada","formattedAddress":["Canada"]},"categories":[{"id":"4f2a23984b9023bd5841ed2c","name":"Moving Target","pluralName":"Moving Targets","shortName":"Moving Target","icon":{"prefix":"https:\/\/ss3.4sqi.net\/img\/categories_v2\/travel\/movingtarget_","suffix":".png"},"primary":true}],"referralId":"v-1637544085","hasPerk":false},{"id":"4b3e98caf964a520819f25e3","name":"L'InterMarchÃ©","location":{"address":"850 rue Saint-Jean","lat":46.811591,"lng":-71.216626,"labeledLatLngs":[{"label":"display","lat":46.811591,"lng":-71.216626}],"distance":114,"postalCode":"G1R 1R3","cc":"CA","city":"QuÃ©bec","state":"QC","country":"Canada","formattedAddress":["850 rue Saint-Jean","QuÃ©bec QC G1R 1R3","Canada"]},"categories":[{"id":"4bf58dd8d48988d118951735","name":"Grocery Store","pluralName":"Grocery Stores","shortName":"Grocery Store","icon":{"prefix":"https:\/\/ss3.4sqi.net\/img\/categories_v2\/shops\/food_grocery_","suffix":".png"},"primary":true}],"referralId":"v-1637544085","hasPerk":false},{"id":"4ce9531a595cb1f786fdcd14","name":"BrÃ»lerie St-Jean","location":{"address":"881 St-Jean","crossStreet":"At HonorÃ© Mercier","lat":46.8119058368838,"lng":-71.21575973176235,"labeledLatLngs":[{"label":"display","lat":46.8119058368838,"lng":-71.21575973176235}],"distance":53,"postalCode":"G1R 1R1","cc":"CA","city":"QuÃ©bec","state":"QC","country":"Canada","formattedAddress":["881 St-Jean (At HonorÃ© Mercier)","QuÃ©bec QC G1R 1R1","Canada"]},"categories":[{"id":"4bf58dd8d48988d1e0931735","name":"Coffee Shop","pluralName":"Coffee Shops","shortName":"Coffee Shop","icon":{"prefix":"https:\/\/ss3.4sqi.net\/img\/categories_v2\/food\/coffeeshop_","suffix":".png"},"primary":true}],"referralId":"v-1637544085","hasPerk":false},{"id":"60e61f13dc981511aaaa85d3","name":"BÅŒ Cuisine d'Asie","location":{"address":"954 rue Saint-Jean","lat":46.81274354129857,"lng":-71.21425867080688,"labeledLatLngs":[{"label":"display","lat":46.81274354129857,"lng":-71.21425867080688}],"distance":133,"postalCode":"G1R 1R5","cc":"CA","city":"QuÃ©bec","state":"QC","country":"Canada","formattedAddress":["954 rue Saint-Jean","QuÃ©bec QC G1R 1R5","Canada"]},"categories":[{"id":"4bf58dd8d48988d1c4941735","name":"Restaurant","pluralName":"Restaurants","shortName":"Restaurant","icon":{"prefix":"https:\/\/ss3.4sqi.net\/img\/categories_v2\/food\/default_","suffix":".png"},"primary":true}],"referralId":"v-1637544085","hasPerk":false},{"id":"4b9e8d5ef964a52053ee36e3","name":"Second Cup CAFÃ‰ & Cie","location":{"address":"800 Place d'Youville","lat":46.81219480749934,"lng":-71.21472713128281,"labeledLatLngs":[{"label":"display","lat":46.81219480749934,"lng":-71.21472713128281}],"distance":62,"postalCode":"G1R 3P4","cc":"CA","city":"QuÃ©bec","state":"QC","country":"Canada","formattedAddress":["800 Place d'Youville","Quebec QC G1R 3P4","Canada"]},"categories":[{"id":"4bf58dd8d48988d16d941735","name":"CafÃ©","pluralName":"CafÃ©s","shortName":"CafÃ©","icon":{"prefix":"https:\/\/ss3.4sqi.net\/img\/categories_v2\/food\/cafe_","suffix":".png"},"primary":true}],"referralId":"v-1637544085","hasPerk":false},{"id":"4e25727fd164b6b74afa9fce","name":"Tabagie Du CarrÃ©","location":{"lat":46.81268217123826,"lng":-71.21526776194138,"labeledLatLngs":[{"label":"display","lat":46.81268217123826,"lng":-71.21526776194138}],"distance":109,"cc":"CA","city":"QuÃ©bec","state":"QC","country":"Canada","formattedAddress":["QuÃ©bec QC","Canada"]},"categories":[{"id":"4bf58dd8d48988d1e0931735","name":"Coffee Shop","pluralName":"Coffee Shops","shortName":"Coffee Shop","icon":{"prefix":"https:\/\/ss3.4sqi.net\/img\/categories_v2\/food\/coffeeshop_","suffix":".png"},"primary":true}],"referralId":"v-1637544085","hasPerk":false},{"id":"4e86860bd3e3a4192900d816","name":"Sur Les Remparts","location":{"lat":46.8125084613273,"lng":-71.21347775690435,"labeledLatLngs":[{"label":"display","lat":46.8125084613273,"lng":-71.21347775690435}],"distance":154,"cc":"CA","city":"QuÃ©bec","state":"QC","country":"Canada","formattedAddress":["QuÃ©bec QC","Canada"]},"categories":[{"id":"4deefb944765f83613cdba6e","name":"Historic Site","pluralName":"Historic Sites","shortName":"Historic Site","icon":{"prefix":"https:\/\/ss3.4sqi.net\/img\/categories_v2\/arts_entertainment\/historicsite_","suffix":".png"},"primary":true}],"referralId":"v-1637544085","hasPerk":false},{"id":"4de7fffde4cd157353eba400","name":"Saveurs Du Monde","location":{"lat":46.811525084964615,"lng":-71.21663659173126,"labeledLatLngs":[{"label":"display","lat":46.811525084964615,"lng":-71.21663659173126}],"distance":116,"cc":"CA","city":"QuÃ©bec","state":"QC","country":"Canada","formattedAddress":["Quebec QC","Canada"]},"categories":[{"id":"4bf58dd8d48988d1c3941735","name":"Moroccan Restaurant","pluralName":"Moroccan Restaurants","shortName":"Moroccan","icon":{"prefix":"https:\/\/ss3.4sqi.net\/img\/categories_v2\/food\/moroccan_","suffix":".png"},"primary":true}],"referralId":"v-1637544085","hasPerk":false},{"id":"4bbd294f593fef3b652f0356","name":"Marriott Quebec","location":{"address":"850 Place d'Youville","lat":46.81213018443209,"lng":-71.21442714059945,"labeledLatLngs":[{"label":"display","lat":46.81213018443209,"lng":-71.21442714059945}],"distance":71,"postalCode":"G1R 3P6","cc":"CA","city":"QuÃ©bec","state":"PQ","country":"Canada","formattedAddress":["850 Place d'Youville","QuÃ©bec PQ G1R 3P6","Canada"]},"categories":[{"id":"4bf58dd8d48988d1fa931735","name":"Hotel","pluralName":"Hotels","shortName":"Hotel","icon":{"prefix":"https:\/\/ss3.4sqi.net\/img\/categories_v2\/travel\/hotel_","suffix":".png"},"primary":true}],"venuePage":{"id":"131925888"},"referralId":"v-1637544085","hasPerk":false},{"id":"4b75f4bcf964a520ed312ee3","name":"Palais Montcalm","location":{"address":"995 D'Youville","lat":46.81240512414711,"lng":-71.2139403326507,"labeledLatLngs":[{"label":"display","lat":46.81240512414711,"lng":-71.2139403326507}],"distance":119,"cc":"CA","city":"QuÃ©bec","state":"QC","country":"Canada","formattedAddress":["995 D'Youville","Quebec QC","Canada"]},"categories":[{"id":"5032792091d4c4b30a586d5c","name":"Concert Hall","pluralName":"Concert Halls","shortName":"Concert Hall","icon":{"prefix":"https:\/\/ss3.4sqi.net\/img\/categories_v2\/arts_entertainment\/musicvenue_","suffix":".png"},"primary":true}],"referralId":"v-1637544085","hasPerk":false},{"id":"60f43124431dde2431b3b636","name":"Cabu","location":{"address":"1100 Rene Levesque Street","lat":46.810556,"lng":-71.215632,"labeledLatLngs":[{"label":"display","lat":46.810556,"lng":-71.215632}],"distance":133,"postalCode":"G1R 4P3","cc":"CA","city":"QuÃ©bec","state":"QC","country":"Canada","formattedAddress":["1100 Rene Levesque Street","QuÃ©bec QC G1R 4P3","Canada"]},"categories":[{"id":"4bf58dd8d48988d1c4941735","name":"Restaurant","pluralName":"Restaurants","shortName":"Restaurant","icon":{"prefix":"https:\/\/ss3.4sqi.net\/img\/categories_v2\/food\/default_","suffix":".png"},"primary":true}],"referralId":"v-1637544085","hasPerk":false},{"id":"551604f3498edc65f53431ae","name":"760 Avenue HonorÃ© Mercier","location":{"address":"760 Avenue HonorÃ© Mercier","lat":46.81247529646316,"lng":-71.21632628801433,"labeledLatLngs":[{"label":"display","lat":46.81247529646316,"lng":-71.21632628801433}],"distance":125,"postalCode":"G1R 1M9","cc":"CA","city":"QuÃ©bec","state":"QC","country":"Canada","formattedAddress":["760 Avenue HonorÃ© Mercier","Quebec QC G1R 1M9","Canada"]},"categories":[{"id":"4d954b06a243a5684965b473","name":"Residential Building (Apartment \/ Condo)","pluralName":"Residential Buildings (Apartments \/ Condos)","shortName":"Residential","icon":{"prefix":"https:\/\/ss3.4sqi.net\/img\/categories_v2\/building\/apartment_","suffix":".png"},"primary":true}],"referralId":"v-1637544085","hasPerk":false},{"id":"60e1ae997e2761122abd6b4d","name":"Cabu - Nespresso","location":{"lat":46.810608,"lng":-71.21527,"labeledLatLngs":[{"label":"display","lat":46.810608,"lng":-71.21527}],"distance":122,"postalCode":"G1R 4X3","cc":"CA","city":"QuÃ©bec","state":"QC","country":"Canada","formattedAddress":["QuÃ©bec QC G1R 4X3","Canada"]},"categories":[{"id":"4bf58dd8d48988d16d941735","name":"CafÃ©","pluralName":"CafÃ©s","shortName":"CafÃ©","icon":{"prefix":"https:\/\/ss3.4sqi.net\/img\/categories_v2\/food\/cafe_","suffix":".png"},"primary":true}],"referralId":"v-1637544085","hasPerk":false},{"id":"4c8e44a3b3bcb60c53015827","name":"Le Beffroi Steak House","location":{"address":"775, av HonorÃ©-Mercier","lat":46.812431955846016,"lng":-71.21495146139688,"labeledLatLngs":[{"label":"display","lat":46.812431955846016,"lng":-71.21495146139688}],"distance":82,"postalCode":"G1R 6A5","cc":"CA","city":"QuÃ©bec","state":"QC","country":"Canada","formattedAddress":["775, av HonorÃ©-Mercier","QuÃ©bec QC G1R 6A5","Canada"]},"categories":[{"id":"4bf58dd8d48988d1cc941735","name":"Steakhouse","pluralName":"Steakhouses","shortName":"Steakhouse","icon":{"prefix":"https:\/\/ss3.4sqi.net\/img\/categories_v2\/food\/steakhouse_","suffix":".png"},"primary":true}],"referralId":"v-1637544085","hasPerk":false},{"id":"4f2b3d7fe4b03d6f91f0a3dc","name":"Patinoire Place d'Youville","location":{"address":"970 rue St-Jean","lat":46.81223864590204,"lng":-71.21417425262477,"labeledLatLngs":[{"label":"display","lat":46.81223864590204,"lng":-71.21417425262477}],"distance":94,"postalCode":"G1R 1R5","cc":"CA","city":"QuÃ©bec","state":"QC","country":"Canada","formattedAddress":["970 rue St-Jean","QuÃ©bec QC G1R 1R5","Canada"]},"categories":[{"id":"4bf58dd8d48988d168941735","name":"Skating Rink","pluralName":"Skating Rinks","shortName":"Skating Rink","icon":{"prefix":"https:\/\/ss3.4sqi.net\/img\/categories_v2\/parks_outdoors\/skatingrink_","suffix":".png"},"primary":true}],"referralId":"v-1637544085","hasPerk":false},{"id":"4e11f5c052b1655efa4a587c","name":"Ichiban Japon","location":{"lat":46.81119980936808,"lng":-71.21525783011792,"labeledLatLngs":[{"label":"display","lat":46.81119980936808,"lng":-71.21525783011792}],"distance":56,"postalCode":"G1R 3P9","cc":"CA","city":"QuÃ©bec","state":"QC","country":"Canada","formattedAddress":["Quebec QC G1R 3P9","Canada"]},"categories":[{"id":"4bf58dd8d48988d120951735","name":"Food Court","pluralName":"Food Courts","shortName":"Food Court","icon":{"prefix":"https:\/\/ss3.4sqi.net\/img\/categories_v2\/shops\/food_foodcourt_","suffix":".png"},"primary":true}],"referralId":"v-1637544085","hasPerk":false},{"id":"4d079dcf2f96f04d63b52d54","name":"Yoda Sushi","location":{"lat":46.81232013953085,"lng":-71.21466033123389,"labeledLatLngs":[{"label":"display","lat":46.81232013953085,"lng":-71.21466033123389}],"distance":77,"cc":"CA","city":"QuÃ©bec","state":"QC","country":"Canada","formattedAddress":["QuÃ©bec QC","Canada"]},"categories":[{"id":"4bf58dd8d48988d1d2941735","name":"Sushi Restaurant","pluralName":"Sushi Restaurants","shortName":"Sushi","icon":{"prefix":"https:\/\/ss3.4sqi.net\/img\/categories_v2\/food\/sushi_","suffix":".png"},"primary":true}],"referralId":"v-1637544085","hasPerk":false},{"id":"4c3b76ffd94dc9b651dcffe7","name":"Hilton Pool","location":{"lat":46.81046,"lng":-71.21539,"labeledLatLngs":[{"label":"display","lat":46.81046,"lng":-71.21539}],"distance":139,"cc":"CA","country":"Canada","formattedAddress":["Canada"]},"categories":[{"id":"4bf58dd8d48988d15e941735","name":"Pool","pluralName":"Pools","shortName":"Pool","icon":{"prefix":"https:\/\/ss3.4sqi.net\/img\/categories_v2\/parks_outdoors\/pool_","suffix":".png"},"primary":true}],"referralId":"v-1637544085","hasPerk":false},{"id":"4b638739f964a52011812ae3","name":"Place QuÃ©bec","location":{"address":"880 Av HonorÃ© Mercier","lat":46.81114832606484,"lng":-71.21616840362549,"labeledLatLngs":[{"label":"display","lat":46.81114832606484,"lng":-71.21616840362549}],"distance":100,"postalCode":"G1R 4X5","cc":"CA","city":"QuÃ©bec","state":"QC","country":"Canada","formattedAddress":["880 Av HonorÃ© Mercier","QuÃ©bec QC G1R 4X5","Canada"]},"categories":[{"id":"4bf58dd8d48988d130941735","name":"Building","pluralName":"Buildings","shortName":"Building","icon":{"prefix":"https:\/\/ss3.4sqi.net\/img\/categories_v2\/building\/default_","suffix":".png"},"primary":true}],"referralId":"v-1637544085","hasPerk":false},{"id":"4c8aab79e51e6dcbc51a6bde","name":"Stationnement d'Youville","location":{"address":"Place d'Youville","crossStreet":"A cotÃ© du Palais Montcalm","lat":46.812308200390824,"lng":-71.2140397108589,"labeledLatLngs":[{"label":"display","lat":46.812308200390824,"lng":-71.2140397108589}],"distance":106,"postalCode":"G1R 3P1","cc":"CA","city":"QuÃ©bec","state":"QC","country":"Canada","formattedAddress":["Place d'Youville (A cotÃ© du Palais Montcalm)","Quebec QC G1R 3P1","Canada"]},"categories":[{"id":"4c38df4de52ce0d596b336e1","name":"Parking","pluralName":"Parking","shortName":"Parking","icon":{"prefix":"https:\/\/ss3.4sqi.net\/img\/categories_v2\/building\/parking_","suffix":".png"},"primary":true}],"referralId":"v-1637544085","hasPerk":false},{"id":"4b70b057f964a520c5292de3","name":"Tabagie Jac & Gil","location":{"address":"785, rue des Glacis","lat":46.81252796366132,"lng":-71.21471036214867,"labeledLatLngs":[{"label":"display","lat":46.81252796366132,"lng":-71.21471036214867}],"distance":97,"postalCode":"G1R 3R1","cc":"CA","city":"QuÃ©bec","state":"QC","country":"Canada","formattedAddress":["785, rue des Glacis","QuÃ©bec QC G1R 3R1","Canada"]},"categories":[{"id":"4bf58dd8d48988d123951735","name":"Smoke Shop","pluralName":"Smoke Shops","shortName":"Smoke Shop","icon":{"prefix":"https:\/\/ss3.4sqi.net\/img\/categories_v2\/shops\/tobacco_","suffix":".png"},"primary":true}],"referralId":"v-1637544085","hasPerk":false}],"confident":false}}